Time,F_Scale,Location,County,State,Lat,Lon,Comments
Time,Speed,Location,County,State,Lat,Lon,Comments
1415,UNK,1 SW STEWART,NEWTON,GA,33.41,-83.87,REPORTS OF MULTIPLE TREES DOWN ON POWER LINES IN THE STEWART GLEN SUBDIVISION (FFC)
1620,UNK,3 NNW BANKS CROSSING,BANKS,GA,34.29,-83.49,REPORTS OF 2 TREES DOWN 2 MI SSE OF HOMER (FFC)
1810,UNK,1 SE COBLESKILL,SCHOHARIE,NY,42.67,-74.48,TRACTOR TRAILER BLOW OVER ON I88 BETWEEN EXITS 21 AND 22. EMERGENCY SERVICES WERE DISPATCHED WITH NO REPORTS OF INJURIES. (ALY)
Time,Size,Location,County,State,Lat,Lon,Comments
1352,100,FLOVILLA,BUTTS,GA,33.25,-83.89,QUARTER-SIZED HAIL REPORTED AT THE FLOVILLA FIRE DEPARTMENT (FFC)
1702,100,3 ESE TOCCOA,STEPHENS,GA,34.56,-83.28,UP TO 1 INCH HAIL REPORTED ESE OF TOCCOA... GA. (GSP)
1730,100,3 WNW WESTMINSTER,OCONEE,SC,34.68,-83.15,UP TO QUARTER SIZED HAIL REPORTED AT CHAU RAM COUNTY PARK. (GSP)
